{
  "posts": [
    {
      "id": 1,
      "title": "json-server",
      "author": "typicode"
    }
  ],
  "comments": [
    {
      "id": 1,
      "body": "some comment",
      "postId": 1
    }
  ],
  "contents": [
    {
      "id": 1,
      "title": "json-server",
      "phonenumber": "typicode",
      "location": "dlddld",
      "contents": "asdasd"
    },
    {
      "title": "asdas",
      "phonenumber": "sdas",
      "contents": "dasdsd",
      "location": "dasda",
      "id": 2
    },
    {
      "title": "asda",
      "phonenumber": "asdasd",
      "contents": "asdasdasd",
      "location": "sdasdasd",
      "id": 3
    },
    {
      "title": "asd",
      "phonenumber": "dasda",
      "contents": "dasdasdasd",
      "location": "asdasdas",
      "id": 4
    },
    {
      "title": "awd",
      "phonenumber": "wsx",
      "contents": "cscasc",
      "location": "wsd",
      "id": 5
    },
    {
      "title": "1231",
      "phonenumber": "23123",
      "contents": "3123123",
      "location": "12312",
      "id": 6
    },
    {
      "title": "asdaddddd",
      "phonenumber": "asdasd",
      "contents": "sadasd",
      "location": "sdasdddd",
      "id": 7
    },
    {
      "title": "1232",
      "phonenumber": "4",
      "contents": "6666",
      "location": "415",
      "id": 8
    },
    {
      "title": "123",
      "phonenumber": "123",
      "contents": "123",
      "location": "123",
      "id": 9
    },
    {
      "title": "aaaa",
      "phonenumber": "aaaa",
      "contents": "aaaa",
      "location": "aaaa",
      "imgurl": "https://s3.ap-northeast-2.amazonaws.com/s3.lost99.com/heart_gray.png",
      "id": 10
    }
  ],
  "profile": {
    "name": "typicode"
  }
}